,adress_velo,lat_velo,lng_velo,bike_stands,status,available_bike_stands,available_bikes,availability,id_velo,type
0,Place du Lac,45.7588856223001300,4.8537678938544730,19,OPEN,16,3,Vert,3058,station_velo
1,"10, Rue Clos Savaron",45.7826362574796000,4.8255591851847730,20,OPEN,14,6,Vert,4008,station_velo
2,"33, Boulevard Eugène Réguillon",45.7615279698755500,4.8956902199613600,15,OPEN,10,5,Vert,10071,station_velo
3,Boulevard du 11 Novembre 1918,45.7790305746488640,4.8668629009953690,23,OPEN,22,0,Orange,10038,station_velo
4,"33, Avenue Antoine de Saint Exupéry",45.7588589710478640,4.8787495764625985,15,OPEN,0,15,Bleu,10060,station_velo
5,Rue du Chariot d'Or,45.7776173765049850,4.8345009421112760,12,OPEN,9,3,Vert,4005,station_velo
6,Rue de la Madeleine,45.7490803589590100,4.8477399426535540,15,OPEN,0,15,Bleu,7016,station_velo
7,Place Sainte Irénée,45.7549458810740000,4.8124212248457430,20,OPEN,16,4,Vert,5008,station_velo
8,"2, Quai de la Libération",45.8308663282951700,4.8469785074774770,24,OPEN,14,10,Vert,27001,station_velo
9,"170, Boulevard des Etats-Unis",45.7247031652649550,4.8707659770891900,20,OPEN,8,12,Vert,8041,station_velo
10,"1, Place Antonin Poncet",45.7567623213032200,4.8339273966533850,40,OPEN,21,19,Vert,2008,station_velo
11,"5, Rue Croix-Barret",45.7367908138388600,4.8411520886055190,32,OPEN,24,7,Vert,7019,station_velo
12,"Face 22, Rue Pizay",45.7672004172203160,4.8363916853563290,22,OPEN,0,22,Bleu,1032,station_velo
13,"103, Avenue Barthélémy Buyer",45.7620132943614000,4.8027598903443770,22,OPEN,20,2,Vert,5055,station_velo
14,"54, Avenue Marc Sangnier",45.7591435230511500,4.8759935561091980,27,OPEN,0,27,Bleu,10048,station_velo
15,"143, Avenue Paul Kruger",45.7541677716671700,4.9052920801326070,22,OPEN,13,9,Vert,10115,station_velo
16,"9, Place Jules Grandclément",45.7583918194315600,4.8856094344245130,34,OPEN,22,12,Vert,10063,station_velo
17,Rue Anatole France,45.7698294895997860,4.8896313501762110,10,OPEN,6,4,Vert,10086,station_velo
18,"111, Avenue Berthelot",45.7437118135706000,4.8473688829598505,15,OPEN,0,13,Bleu,7011,station_velo
19,"37, Rue Sébastien Gryphe",45.7519114393107300,4.8437864046911105,25,OPEN,3,22,Vert,7036,station_velo
20,Place Vanderpol,45.7730995725331500,4.8078137222645940,15,OPEN,2,13,Vert,9029,station_velo
21,"Face 31, Rue des Bienvenus",45.7778649152535660,4.8842442857728360,15,OPEN,1,11,Vert,10083,station_velo
22,"Face 30, Rue Ferrandière",45.7621739970214800,4.8359706936868220,25,OPEN,23,2,Vert,2017,station_velo
23,184 route de Vienne,45.7324819782407700,4.8534099750018610,20,OPEN,1,19,Vert,8057,station_velo
24,Place Henri,45.7481869061751400,4.8805939581712150,13,OPEN,5,8,Vert,3051,station_velo
25,"45, Rue Edouard Vaillant",45.7753988102813600,4.8802630912578130,17,OPEN,0,17,Bleu,10080,station_velo
26,"43, Avenue de Ménival",45.7567552283432900,4.7832459078446250,12,OPEN,12,0,Orange,5032,station_velo
27,"62, Rue St Maximin",45.7478194334711700,4.8722698711079255,30,OPEN,24,6,Vert,3070,station_velo
28,Place Meissonier,45.7660850668592000,4.8328335830568180,16,OPEN,2,13,Vert,1005,station_velo
29,"16, Rue Michel Rocard",45.7809196995722940,4.8895701799074100,25,OPEN,0,23,Bleu,10044,station_velo
30,Place Carnot,45.7512270521822700,4.8268908354867040,30,OPEN,7,22,Vert,2022,station_velo
31,"Face 38, Rue Philippe de Lassalle",45.7774206479390600,4.8205384707114510,13,OPEN,3,10,Vert,4014,station_velo
32,"70, Avenue Mal. de Lattre de Tassigny",45.7366744242415300,4.9171004856320100,25,OPEN,23,2,Vert,14003,station_velo
33,Place de la Rochette,45.7916701826039940,4.8235970239637440,20,OPEN,4,16,Vert,11003,station_velo
34,"Face 2, Place Bir-Hakeim",45.7525921437139600,4.8557101486887975,19,OPEN,9,10,Vert,3039,station_velo
35,"97, Avenue Jules Jusserand",45.7511124102764400,4.8555850883006510,13,OPEN,9,4,Vert,3053,station_velo
36,"12, quai Saint Antoine",45.7633583865650400,4.8320919407108290,23,OPEN,5,18,Vert,2040,station_velo
37,"4, Rue Etienne Dolet",45.7140014190252940,4.8065443341113525,18,OPEN,17,1,Vert,20002,station_velo
38,"9, Rue Maupin",45.7587390821938500,4.8340765154131455,25,OPEN,6,19,Vert,2024,station_velo
39,"2, Place Saint Anne",45.7570472666940200,4.8653318030820705,18,OPEN,2,16,Vert,3099,station_velo
40,"5, Rue du Professeur Rollet",45.7485395662598650,4.8615417793642550,36,OPEN,33,3,Vert,8001,station_velo
41,"93, Avenue de l'Europe",45.7400516465032750,4.8594164128821960,20,OPEN,1,19,Vert,8010,station_velo
42,Place des Quatre Chamins,45.7084437290321550,4.8548610775585280,11,OPEN,2,9,Vert,17002,station_velo
43,Place des Compagnons de la chanson,45.7565273368784000,4.7966121788894250,18,OPEN,18,0,Orange,5002,station_velo
44,Rue Gabriel Péri,45.7723033504795540,4.8657606458135480,12,OPEN,0,12,Bleu,10075,station_velo
45,Quai Jean Baptiste Simon,45.8324657183306240,4.8487792326838310,20,OPEN,6,14,Vert,28001,station_velo
46,Rue Philippe de Lassalle,45.7734801071979400,4.8213076459729780,23,OPEN,8,15,Vert,4006,station_velo
47,Face au 92b Rue d'Inkermann,45.7639360244316800,4.8659132544557260,30,OPEN,18,12,Vert,6017,station_velo
48,Place Antonin Gourju,45.7594863490351000,4.8301699554160630,30,OPEN,8,22,Vert,2036,station_velo
49,Place Général Leclerc,45.7774932959538900,4.8448707260176660,40,OPEN,11,29,Vert,6002,station_velo
50,"14, Quai Général Sarrail",45.7648582723532300,4.8415654714910220,20,OPEN,8,12,Vert,6032,station_velo
51,"57, Rue Marius Berliet
57, Rue Marius Berliet",45.7422568774361760,4.8603720894672350,20,OPEN,14,6,Vert,8055,station_velo
52,"133, Boulevard de la Croix Rousse",45.7742004406999600,4.8277652218641750,20,OPEN,18,1,Vert,4002,station_velo
53,"Face 56, Boulevard de l'Yzeron",45.7201577769260500,4.7983317319214030,24,OPEN,4,20,Vert,20003,station_velo
54,Rue Maurice Flandin,45.7606085556441100,4.8630862498286330,28,OPEN,22,4,Vert,3081,station_velo
55,"196, Avenue Pierre Mendes France",45.8159701108686600,4.8870434508176660,18,OPEN,11,7,Vert,30002,station_velo
56,Rue des Cuirassiers,45.7598976512354200,4.8575730314142140,59,OPEN,59,0,Orange,3011,station_velo
57,135 rue Château Gaillard,45.7715543267274200,4.8903742138377730,17,OPEN,2,15,Vert,10092,station_velo
58,Place des Maisons Neuves,45.7559670655560100,4.8774136476772200,23,OPEN,0,23,Bleu,10024,station_velo
59,"49, Cours de la République",45.7675173783310900,4.8740105549119060,24,OPEN,11,13,Vert,10028,station_velo
60,"12, Rue Félix Mangini",45.7904088071307300,4.8163493917942380,24,OPEN,21,3,Vert,9046,station_velo
61,"183, Rue André Philip",45.7615909258196600,4.8504811626495200,18,OPEN,15,2,Vert,3083,station_velo
62,"153, Rue de Créqui",45.7637960125263300,4.8470620002854570,15,OPEN,8,6,Vert,6033,station_velo
63,"Face 174, Rue de Gerland",45.7298058652087600,4.8381384383404170,12,OPEN,11,1,Vert,7021,station_velo
64,"Face 3, Quai Victor Augagneur",45.7619651301154850,4.8410534307662090,19,OPEN,18,1,Vert,3044,station_velo
65,122b Avenue Jules Guesde,45.7085339720955660,4.8870248117095900,25,OPEN,24,0,Orange,16005,station_velo
66,"37, Rue du 4 Août 1789",45.7644829391731900,4.8779206263003290,30,OPEN,0,29,Bleu,10019,station_velo
67,"Face 98, Rue Villon",45.7383023357079350,4.8627327832044810,13,OPEN,1,12,Vert,8034,station_velo
68,"13, Quai romain Rolland",45.7633837102434300,4.8290114774217890,14,OPEN,13,1,Vert,5026,station_velo
69,"65, Boulevard Vivier Merle",45.7572314152350900,4.8589083673700480,20,OPEN,20,0,Orange,3038,station_velo
70,Chemin Wette Fays,45.7879516402910550,4.8530543333992190,25,OPEN,10,15,Vert,11005,station_velo
71,"4, Place Louise",45.7512052508819200,4.8848204636500700,16,OPEN,5,11,Vert,3079,station_velo
72,"1, Rue Ferrandière",45.7620553014781300,4.8332059556379780,10,OPEN,2,8,Vert,2025,station_velo
73,Place Jean Macé,45.7465601730305500,4.8423412580916120,30,OPEN,0,28,Bleu,7004,station_velo
74,"2, Rue des Acacias",45.7804458217109400,4.9044888457892960,12,OPEN,2,7,Vert,10119,station_velo
75,"Face 27, Rue de la Thibaudière",45.7503447975739450,4.8450482534996375,28,OPEN,3,25,Vert,7053,station_velo
76,Place du Château,45.7495170788471200,4.8872857232192940,25,OPEN,20,5,Vert,3012,station_velo
77,Rue Denfert-Rochereau,45.7758995112138400,4.8253789620711200,14,OPEN,3,11,Vert,4009,station_velo
78,"22, Rue colin",45.7744984646734300,4.8740523266943320,15,OPEN,11,4,Vert,10089,station_velo
79,Place de la Paix,45.7680236126546500,4.8317412517184160,20,OPEN,2,17,Vert,1031,station_velo
80,"209, Rue Paul Bert",45.7571028581681740,4.8534807971166600,20,OPEN,15,5,Vert,3037,station_velo
81,"18, Rue Edouard Rochet",45.7472342916476600,4.8654404007908300,20,OPEN,19,0,Orange,8035,station_velo
82,"27, Rue Emile Bertrand",45.7718733296366760,4.9557667876110880,20,OPEN,10,10,Vert,13001,station_velo
83,Quai Charles de Gaulle,45.7854214249623800,4.8541240727107640,21,OPEN,21,0,Orange,6035,station_velo
84,44 Bd de la Croix Rousse,45.7743716157555500,4.8328150087604630,17,OPEN,16,0,Orange,1036,station_velo
85,"5-6, Place Maréchal Lyautey",45.7693730577565400,4.8423179538871635,20,OPEN,0,20,Bleu,6022,station_velo
86,"45, Rue du Bourbonnais",45.7734645659819600,4.8002879293936390,12,OPEN,6,6,Vert,9020,station_velo
87,48 Cours Suchet,45.7461030735744740,4.8256053939445850,20,OPEN,8,12,Vert,2027,station_velo
88,Place Regaud,45.7630769295670000,4.8342866883470440,12,OPEN,12,0,Orange,2016,station_velo
89,"5, Rue de Verdun",45.7339455296300700,4.9087206818679405,23,OPEN,17,6,Vert,14004,station_velo
90,"100, Cours Charlemagne",45.7426115005543960,4.8204716703055040,37,OPEN,32,4,Vert,2007,station_velo
91,"Face 29, Avenue Jean Mermoz",45.7351509957905000,4.8728173875360470,21,OPEN,11,10,Vert,8004,station_velo
92,"86, Rue de la Charité",45.7492533954913900,4.8298441257520310,17,OPEN,0,17,Bleu,2039,station_velo
93,Rue Joseph Blein,45.7570697600648660,4.9273216112656590,15,OPEN,7,7,Vert,12003,station_velo
94,"3, Rue de St-Cyr",45.7997914275755500,4.8196018687552730,12,OPEN,2,10,Vert,25001,station_velo
95,"Face 56, Quai Pierre Scize",45.7665803442908100,4.8202302422982600,21,OPEN,7,14,Vert,5041,station_velo
96,Place des Rendez vous,45.8354059997715200,4.8457000001885610,20,OPEN,16,4,Vert,28002,station_velo
97,"53, Rue de l'Université",45.7485374331787540,4.8432493337468060,20,OPEN,0,20,Bleu,7061,station_velo
98,"Face 327, Rue Garibaldi",45.7477327368804800,4.8516273700582800,19,OPEN,0,19,Bleu,7062,station_velo
99,"Face 14, Avenue Verguin",45.7729113974482800,4.8563267813588190,20,OPEN,18,2,Vert,6003,station_velo
100,Rue de la Poudrette,45.7608131946829250,4.9206039456886055,25,OPEN,25,0,Orange,12001,station_velo
101,"Face 16, Avenue Galline",45.7763954484591800,4.8670871111508170,15,OPEN,6,9,Vert,10055,station_velo
102,Place d'Helvétie,45.7731863072103200,4.8419593354412900,30,OPEN,7,23,Vert,6025,station_velo
103,"74, Rue de la Villette",45.7577878804856440,4.8614973648418860,38,OPEN,38,0,Orange,3094,station_velo
104,"67, Rue Edmond Locard",45.7600785770139300,4.7984076149535470,15,OPEN,15,0,Orange,5044,station_velo
105,"10, rue du Dauphiné",45.7499462288418300,4.8646503841216660,30,OPEN,7,22,Vert,3069,station_velo
106,Place Charles Hernu,45.7702250288524500,4.8631517199360460,46,OPEN,43,3,Vert,10006,station_velo
107,Place Flammarion,45.7793264516606800,4.8203031984414520,18,OPEN,8,10,Vert,4007,station_velo
108,"108, Rue Roger salengro",45.7783682080048800,4.8796732813004160,24,OPEN,8,16,Vert,10008,station_velo
109,"Face 74, Rue de la Part-Dieu",45.7596453088344100,4.8482665597083550,27,OPEN,20,5,Vert,3004,station_velo
110,49 Avenue Gorges Clémenceau,45.6978120018869000,4.7947728497160735,12,OPEN,12,0,Orange,19001,station_velo
111,"21, Rue Docteur Dolard",45.7614496449619350,4.8724655049634790,25,OPEN,0,25,Bleu,10073,station_velo
112,"109, Route de Genas",45.7544406098892150,4.8852693286713480,32,OPEN,19,13,Vert,10112,station_velo
113,"Face au 84, Quai Joseph Gillet",45.7881700188236600,4.8185602866725280,25,OPEN,9,16,Vert,4024,station_velo
114,"312, Cours du 3ème Millénaire",45.7144103841041840,4.9310143156708940,20,OPEN,17,3,Vert,15001,station_velo
115,"3, Quai André Lassagne",45.7722014692572260,4.8379117929264730,16,OPEN,0,16,Bleu,1035,station_velo
116,"1, Rue Jean de Tournes",45.7607516950581540,4.8343042285358890,26,OPEN,11,15,Vert,2014,station_velo
117,Allée Achille Lignon,45.7823061128328350,4.8493439808167290,27,OPEN,27,0,Orange,6037,station_velo
118,"141, Cours Emile Zola",45.7700978432658200,4.8766904175328010,19,OPEN,0,19,Bleu,10074,station_velo
119,"Face 77b, Rue Marietton",45.7760850428762750,4.7997376609700090,20,OPEN,0,19,Bleu,9043,station_velo
120,"241, Grande Rue de la Guillotière",45.7479327825068000,4.8563371818097670,30,OPEN,2,26,Vert,7051,station_velo
121,"45, Rue de Gerland",45.7398132348896800,4.8403073886228570,20,OPEN,2,17,Vert,7031,station_velo
122,"Face 303, Rue Duguesclin",45.7530043530221000,4.8502474272199690,38,OPEN,0,36,Bleu,3029,station_velo
123,"Face 18, Rue Joseph Serlin",45.7676109468329100,4.8366570054128440,41,OPEN,10,30,Vert,1002,station_velo
124,"Face 106, Avenue Félix Faure",45.7538149056220500,4.8598558941293660,35,CLOSED,0,0,Gris,3036,station_velo
125,"15, Rue des Remparts d'Ainay",45.7530892095642200,4.8298071448327240,24,OPEN,6,17,Vert,2038,station_velo
126,"106, Grande rue de la Guillotière",45.7510565465262100,4.8480482303453220,10,OPEN,2,7,Vert,7039,station_velo
127,"Face 317, Avenue Jean Jaurès",45.7275732848257200,4.8311974821956260,40,OPEN,40,0,Orange,7006,station_velo
128,"276, Cours Emile Zola",45.7670909450657100,4.8924286413845515,22,OPEN,6,15,Vert,10058,station_velo
129,Rue du Bourbonnais,45.7742408280787800,4.8056660114147770,27,OPEN,13,13,Vert,9002,station_velo
130,"171, Rue Léon Blum",45.7605040003338900,4.9059509747414040,16,OPEN,16,0,Orange,10116,station_velo
131,"Face 2, Rue du Professeur Emile Bouvier",45.7794643121307400,4.8915809514291190,16,OPEN,0,16,Bleu,10039,station_velo
132,"49, Boulevard des Belges",45.7733270382747500,4.8519894989151780,15,OPEN,4,11,Vert,6006,station_velo
133,Avenue Albert Einstein,45.7822165054530900,4.8769550250054060,55,OPEN,51,1,Vert,10002,station_velo
134,"2, Rue Georges Meliès",45.7766967138823300,4.8595230519892390,24,OPEN,24,0,Orange,10054,station_velo
135,"22, Rue Louis Paufique",45.7593809563465260,4.8353992022816500,28,OPEN,20,7,Vert,2026,station_velo
136,Place Saint-Luc,45.7495654052048600,4.8008960240920420,15,OPEN,15,0,Orange,22001,station_velo
137,"1, Rue Roquette",45.7756749996432200,4.8053036651209080,16,OPEN,0,16,Bleu,9003,station_velo
138,"4, Rue Professeur Paul Sisley",45.7528275113150600,4.8687687708041860,17,OPEN,0,17,Bleu,3100,station_velo
139,"3, Avenue Aristide Briand",45.7668331420973300,4.8801151194357875,26,OPEN,22,3,Vert,10027,station_velo
140,"29, Rue de la Bourse",45.7658113822040560,4.8368957414205630,26,OPEN,20,4,Vert,1012,station_velo
141,"123, Boulevard Stalingrad",45.7743568286995240,4.8591545857608360,21,OPEN,20,1,Vert,10036,station_velo
142,"Face 26, Quai Jules courmont",45.7574175254861500,4.8370623720287080,50,OPEN,42,8,Vert,2018,station_velo
143,"20, Rue de la Poulaillerie",45.7640723503116150,4.8355253578885975,32,OPEN,17,14,Vert,2030,station_velo
144,"313, Route de Vienne",45.7241420539186200,4.8541764434151110,20,OPEN,8,12,Vert,8051,station_velo
145,"Face au 40, Avenue Jean Jaurès",45.7123448014944400,4.8552741231339970,27,OPEN,0,27,Bleu,17001,station_velo
146,"58, Rue de Sèze",45.7684041683728250,4.8494967237845850,23,OPEN,0,22,Bleu,6011,station_velo
147,"Face 40, Quai Chauveau",45.7697822121574100,4.8126762195854050,19,OPEN,17,0,Orange,9011,station_velo
148,Rue Stéphane Déchant,45.7273693332767340,4.8146354766198370,24,OPEN,16,8,Vert,21001,station_velo
149,"51t, Rue de Saint-Cyr",45.7828282303757100,4.8072963588022790,30,OPEN,25,4,Vert,9015,station_velo
150,Place Puvis de Chavannes,45.7717570855734000,4.8446036357483555,10,OPEN,1,8,Vert,6012,station_velo
151,"Face 74, Boulevard Jean XXIII",45.7364796056891400,4.8698054320071750,20,OPEN,7,13,Vert,8009,station_velo
152,"25, Rue Maryse Bastié",45.7403259296418700,4.8741942706838780,16,OPEN,16,0,Orange,8015,station_velo
153,"221, Avenue Lacassagne",45.7453008083141900,4.8890420355008900,24,OPEN,12,12,Vert,3089,station_velo
154,"43, Rue Vaubecour",45.7518693364220250,4.8247555892183200,20,OPEN,1,19,Vert,2042,station_velo
155,Boulevard Irène Joliot Curie,45.7154529520501360,4.8782350614798360,25,OPEN,13,12,Vert,16003,station_velo
156,Place du Port Mouton,45.7738201179439200,4.8095603029641690,18,OPEN,9,9,Vert,9032,station_velo
157,"8, Rue du Président Edouard Herriot",45.7670410048109700,4.8342839059717140,11,OPEN,11,0,Orange,1021,station_velo
158,"128, Rue Paul Bert",45.7572612599251600,4.8552008564228180,28,OPEN,24,4,Vert,3084,station_velo
159,Quai Romain Rolland angle Quai de Bondy,45.7646815056712300,4.8289833265225160,16,OPEN,3,13,Vert,5009,station_velo
160,"52, Rue du Pensionnat",45.7547065642496240,4.8534044474099280,30,OPEN,24,6,Vert,3034,station_velo
161,"16, Rue Guillaume Paradin",45.7381400560294900,4.8868803087115330,16,OPEN,16,0,Orange,8003,station_velo
162,"65, Rue Moncey",45.7588152050466300,4.8464532259485145,16,OPEN,12,4,Vert,3088,station_velo
163,"39, Boulevard Ambroise Paré",45.7362995122816000,4.8836816883227290,24,OPEN,11,13,Vert,8040,station_velo
164,"117, Boulevard Yves Farge",45.7356738897812000,4.8277191559612230,20,OPEN,1,19,Vert,7007,station_velo
165,"171, Rrue Léon Blum",45.7645613324081800,4.8923593859032770,22,OPEN,8,14,Vert,10117,station_velo
166,"30, Quai Paul Sédaillan",45.7924777385859400,4.8205782575315625,18,OPEN,17,1,Vert,9041,station_velo
167,"59, Boulevard Pinel",45.7481832938431700,4.8969570575460010,20,OPEN,19,1,Vert,3091,station_velo
168,"45, Rrue Pierre Baratin",45.7631587956905860,4.9004795303651320,16,OPEN,15,1,Vert,10035,station_velo
169,Place Saint-Paul,45.7662717372985600,4.8274321226910390,23,OPEN,9,14,Vert,5005,station_velo
170,"17, rue d'Austerlitz",45.7755023590485800,4.8350625452914060,18,OPEN,18,0,Orange,4041,station_velo
171,"80, Quai Charles de Gaulle",45.7847015036764200,4.8519081064540370,32,OPEN,32,0,Orange,6043,station_velo
172,"126, Rue Pierre Corneille",45.7599809590692000,4.8444896754890480,13,OPEN,11,2,Vert,3031,station_velo
173,Rue de la Technologie,45.7856471441405260,4.8823577998970050,30,OPEN,24,4,Vert,10001,station_velo
174,Place Rouget de l'Isle,45.7539631929670600,4.8673532946259150,16,OPEN,1,14,Vert,3043,station_velo
175,Place Jules Ferry,45.7669095802662650,4.8589921673125620,16,OPEN,15,1,Vert,6001,station_velo
176,Avenue du Rhône,45.7170299434914200,4.8141359805783805,40,OPEN,7,32,Vert,20001,station_velo
177,Avenue de Bel Air,45.7579143507054340,4.9107987932571575,20,OPEN,19,0,Orange,10114,station_velo
178,"60, Avenue Rockefeller",45.7404860034671760,4.8880825075933510,20,OPEN,18,2,Vert,3071,station_velo
179,Quai Romain Rolland,45.7620370806926700,4.8288896824580405,17,OPEN,5,12,Vert,5006,station_velo
180,Place Chevalier de Saint-Georges,45.7361815820860700,4.8153350287499040,20,OPEN,19,0,Orange,2019,station_velo
181,"2, Place Edouard Commette",45.7604837438977800,4.8265650503972600,39,OPEN,3,33,Vert,5004,station_velo
182,"2, Rue Greuze",45.7738494367907200,4.8938448095574300,18,OPEN,1,17,Vert,10030,station_velo
183,"92, Rue Voyant",45.7671914150099100,4.9005990995120360,22,OPEN,4,18,Vert,10118,station_velo
184,"47, Rue Tête d'Or",45.7696601321996100,4.8523727828559995,27,OPEN,11,16,Vert,6007,station_velo
185,"Face 251, Rue Marcel Mérieux",45.7290680809079800,4.8301517682916960,16,OPEN,16,0,Orange,7012,station_velo
186,"6, Place Edgar Quinet",45.7657655924629200,4.8447318928504440,20,OPEN,7,12,Vert,6005,station_velo
187,Avenue Gaston Berger,45.7809847816336500,4.8712077146085780,30,OPEN,30,0,Orange,10102,station_velo
188,18 route de Genève,45.8050913402650000,4.8847438731991380,12,OPEN,6,6,Vert,30001,station_velo
189,2 Rue du Moulin à Vent,45.7296761340645800,4.8541819412364090,22,OPEN,9,13,Vert,8020,station_velo
190,Bd 11 nov 1918,45.7794441107438300,4.8740901733285210,34,OPEN,31,2,Vert,10101,station_velo
191,"Face au 27, Route de Lyon",45.8708762461699200,4.8395985373186360,15,OPEN,1,13,Vert,34002,station_velo
192,Rue Maurice Audin,45.7781718162778500,4.9205167112977890,30,OPEN,15,15,Vert,12004,station_velo
193,Rue Joliot Curie,45.7546405115265300,4.7881488839855880,20,OPEN,19,1,Vert,5031,station_velo
194,Place Stalingrad,45.7495788810534300,4.8529655050157780,13,OPEN,0,13,Bleu,7038,station_velo
195,"15, Quai Rambaud",45.7459165775636100,4.8171736085201430,30,OPEN,21,8,Vert,2021,station_velo
196,"25, Rue Chazière",45.7754224668984700,4.8178899295525035,20,OPEN,6,14,Vert,4025,station_velo
197,"2, Rue Jean Renoir",45.7529160218789240,4.8638526893825510,15,OPEN,3,12,Vert,3067,station_velo
198,"30, Rue Renan",45.7467662258473740,4.8420506993495060,16,OPEN,0,16,Bleu,7055,station_velo
199,"2, Avenue des Arts",45.7834997795765100,4.8712494989676305,30,OPEN,28,1,Vert,10084,station_velo
200,"41, Quai Rambaud",45.7396275873331000,4.8150259306438120,26,OPEN,25,0,Orange,2009,station_velo
201,Place Tolozan,45.7696005888254260,4.8376084367310750,36,OPEN,1,35,Vert,1022,station_velo
202,"Face 9, Rue Pierre Verger",45.7316833148739000,4.8741275326105120,17,OPEN,3,14,Vert,8060,station_velo
203,"13, Rue de Verdun",45.7840513436847400,4.8970859241187770,21,OPEN,15,5,Vert,10122,station_velo
204,Place Ennemond Romand,45.7257547271142850,4.8583509977388920,20,OPEN,9,11,Vert,16001,station_velo
205,"6, Rue de la Platière",45.7659547300349500,4.8311781246444845,17,OPEN,2,15,Vert,1016,station_velo
206,", Rrue Cavenne",45.7557687140506700,4.8407327899664360,22,OPEN,17,5,Vert,7056,station_velo
207,Allée Achille Lignon,45.7845729057677800,4.8597583624124910,22,OPEN,22,0,Orange,6041,station_velo
208,"174, Cours Emile Zola",45.7692274364669060,4.8804622522382600,16,OPEN,5,11,Vert,10011,station_velo
209,Place Steven Spielberg,45.7059819724876400,4.9009848506091010,20,OPEN,17,3,Vert,15002,station_velo
210,Boulevard du 11 Novembre 1918,45.7796937078335100,4.8600085938999790,35,OPEN,34,1,Vert,10005,station_velo
211,"38, Cours d'Herbouville",45.7787675773143300,4.8410695622109970,30,OPEN,1,27,Vert,4012,station_velo
212,"1, Avenue du Docteur Georges Lévy",45.7193988058185000,4.8548015762351050,18,OPEN,6,10,Vert,16002,station_velo
213,"Face 150, Cours Gambetta",45.7502533119060360,4.8579250300630620,22,OPEN,17,4,Vert,3009,station_velo
214,"22, Rue de la Marne",45.7429248383540640,4.9086213384119860,13,OPEN,9,4,Vert,14001,station_velo
215,"4, Boulevard Eugène Deruelle",45.7627511569952000,4.8524277723450730,20,OPEN,19,1,Vert,3087,station_velo
216,"Face 14, Rue du 24 Mars 1852",45.7797819839255400,4.8046653309593905,22,OPEN,20,2,Vert,9004,station_velo
217,Place Ambroise Courtois,45.7452926164535000,4.8716789632578010,20,OPEN,15,5,Vert,8002,station_velo
218,Avenue Piaton,45.7742151784181300,4.8675042131350820,20,OPEN,0,19,Bleu,10007,station_velo
219,"63, Rue de Trion",45.7573003219205000,4.8150900113095240,23,OPEN,21,2,Vert,5001,station_velo
220,"127, Quai Fulchiron",45.7578416796382400,4.8261054516922880,20,OPEN,8,11,Vert,5040,station_velo
221,"16, Rueue Santos Dumont",45.7444461798116300,4.8608871751443760,17,OPEN,3,14,Vert,8025,station_velo
222,"6, Rue Gorge de Loup",45.7701340720176050,4.8051580030149460,16,OPEN,1,15,Vert,9049,station_velo
223,"5, Rue Dunoir",45.7609213906398600,4.8451935986950010,37,OPEN,30,7,Vert,3017,station_velo
224,"Face 31, Rue Albert Chalinel",45.8011198081158200,4.8252725616689830,15,OPEN,5,10,Vert,9009,station_velo
225,Place GrandClément,45.7597183207295700,4.8899469363178760,19,OPEN,0,19,Bleu,10021,station_velo
226,"Face 41, Route de Vienne",45.7425795049166550,4.8505637556621760,15,OPEN,0,15,Bleu,7023,station_velo
227,"26, Rue de la Viabert",45.7663703493176260,4.8650841638710620,16,OPEN,5,11,Vert,6044,station_velo
228,Cours Albert Thomas,45.7458332337286600,4.8706387106502870,18,OPEN,17,1,Vert,3008,station_velo
229,"74, Rue Paul Cazeneuve",45.7314272671117600,4.8600379663129870,22,OPEN,0,22,Bleu,8042,station_velo
230,"52, Rue du Poizat",45.7557642719574800,4.8915301676718470,22,OPEN,20,2,Vert,10113,station_velo
231,"Face 45, Quai Joseph Gillet",45.7782780129806140,4.8106317576202680,22,OPEN,19,3,Vert,4023,station_velo
232,"139, Avenue Félix Faure",45.7543008100597300,4.8634641019603990,19,OPEN,4,15,Vert,3066,station_velo
233,"Face 23, Boulevard de la Croix Rousse",45.7722538415304900,4.8194608620100040,20,OPEN,9,11,Vert,1023,station_velo
234,"100, Cours Gambetta",45.7517901355474700,4.8526079660087520,40,OPEN,0,38,Bleu,7003,station_velo
235,"31, Boulevard Yves Farge",45.7431645419377450,4.8341688750746420,30,OPEN,11,17,Vert,7030,station_velo
236,Allée Achille Lignon,45.7848181552653900,4.8565116142349005,28,OPEN,28,0,Orange,6042,station_velo
237,"Face 2, Place des Célestins",45.7599398325897200,4.8320716113863760,22,OPEN,18,4,Vert,2013,station_velo
238,"115, Avenue Lacassagne",45.7495627067970800,4.8759334029685050,16,OPEN,4,11,Vert,3086,station_velo
239,"17, Avenue Jean Jaurès",45.7525809002148800,4.8463206182240945,10,OPEN,5,5,Vert,7008,station_velo
240,Rue Bancel,45.7485202867305600,4.8405245716725130,21,OPEN,2,19,Vert,7024,station_velo
241,"78, Boulevard des Etats-Unis",45.7322180106596860,4.8651415367367150,20,OPEN,12,8,Vert,8029,station_velo
242,"60, Boulevard des Canuts",45.7797553671142550,4.8276484010879560,22,OPEN,22,0,Orange,4004,station_velo
243,"186, Avenue Paul Santy",45.7254037172008000,4.8812948922096580,18,OPEN,18,0,Orange,8061,station_velo
244,"10, Place de la Paix",45.7520735665841300,4.9146693240440210,17,OPEN,13,4,Vert,10016,station_velo
245,"103, Rue Anatole France",45.7681141025166000,4.8790813175577960,20,OPEN,1,19,Vert,10079,station_velo
246,"175, Avenue Jean Jaurès",45.7375180973509360,4.8375089199170210,16,OPEN,0,16,Bleu,7009,station_velo
247,"Face 40, Avenue Leclerc",45.7377409586890200,4.8244875157097110,25,OPEN,0,25,Bleu,7045,station_velo
248,"Face 52, Rue Baraban",45.7620516689039150,4.8685003507160690,20,OPEN,0,20,Bleu,3101,station_velo
249,Rue Tabareau,45.7740806705343900,4.8251597121983645,10,OPEN,4,6,Vert,4021,station_velo
250,"4, Place Danton",45.7548124485154400,4.8575743726010305,18,OPEN,16,2,Vert,3103,station_velo
251,"64, Rue Pierre Corneille",45.7637594783418750,4.8437773405191870,13,OPEN,6,7,Vert,6031,station_velo
252,"4, Rue Florian",45.7618051903302860,4.8807224046277390,21,OPEN,1,20,Vert,10018,station_velo
253,"86, Rue Saint Pierre de Vaise",45.7704769200645740,4.8009004832411430,16,OPEN,0,16,Bleu,9044,station_velo
254,"22, Rue Voltaire",45.7032558571012300,4.8212003761276780,15,OPEN,4,11,Vert,18001,station_velo
255,24 Rue Anatole France,45.7669053920040840,4.8701613960086180,20,OPEN,2,18,Vert,10045,station_velo
256,"68, Rue Antoine Charial",45.7578618343521100,4.8683505318832685,16,OPEN,0,16,Bleu,3085,station_velo
257,"35, Avenue Rockefeller",45.7413337186004100,4.8855408242791200,19,OPEN,18,1,Vert,3024,station_velo
258,"41, Rue Sala",45.7544732763091350,4.8330110846859420,21,OPEN,1,20,Vert,2041,station_velo
259,Place Rouville,45.7696644422938000,4.8246123488633990,17,OPEN,13,4,Vert,1024,station_velo
260,13 Promenade des Tuileries,45.7632560325953860,4.7786100656705530,12,OPEN,6,6,Vert,23001,station_velo
261,"332, Boulevard de Balmont",45.7893151875845100,4.7991603409726270,12,OPEN,12,0,Orange,9052,station_velo
262,"Face 2, Rue de la Poudrette",45.7644003130587800,4.9192757859473670,20,OPEN,20,0,Orange,12002,station_velo
263,"228, Avenue du Plateau",45.7836371650547900,4.7945253084995630,12,OPEN,12,0,Orange,9050,station_velo
264,"76, Rue Pierre Baratin",45.7605989970817800,4.9006968059950955,12,OPEN,6,6,Vert,10087,station_velo
265,Avenue de Birmingham,45.7746311098016750,4.8134162571603990,20,OPEN,3,17,Vert,4026,station_velo
266,"41, Route de Genas",45.7529175454410300,4.8988991727177510,16,OPEN,13,3,Vert,10041,station_velo
267,"Face 119, Avenue Maréchal de Saxe",45.7575642739996500,4.8461181734350030,28,OPEN,20,8,Vert,3082,station_velo
268,"25, Rue des Charmettes",45.7706590731821400,4.8672514558705640,23,OPEN,1,22,Vert,10046,station_velo
269,"19, Rue de Saint-Cloud",45.7300799170408600,4.8278229564284700,28,OPEN,23,5,Vert,7046,station_velo
270,"6, Rue de l'Antiquaille",45.7583623960292900,4.8210866415482530,12,OPEN,3,9,Vert,5050,station_velo
271,"Face 16, Quai Claude Bernard",45.7514132273513000,4.8363931815987780,40,OPEN,40,0,Orange,7002,station_velo
272,Place d'Arsonval,45.7434156767836340,4.8789206164428370,32,OPEN,30,1,Vert,3007,station_velo
273,"Face 1, Rue Saint Antoine",45.7628598508923400,4.8622869000871980,23,OPEN,20,1,Vert,3006,station_velo
274,301 avenue A.Sakharov,45.7865247393491300,4.7970709023310110,12,OPEN,11,0,Orange,9051,station_velo
275,Pont Raymond Barre,45.7333725083867400,4.8189577716666860,20,OPEN,17,0,Orange,2020,station_velo
276,Place de Trion,45.7579063089064060,4.8131349528107470,16,OPEN,10,6,Vert,5007,station_velo
277,"Face 112, Rue Servient",45.7607774131537200,4.8526789906473330,32,OPEN,32,0,Orange,3015,station_velo
278,"Face 42, Rue Paul Cazeneuve",45.7340200917966400,4.8629023792941540,19,OPEN,0,19,Bleu,8037,station_velo
279,Avenue du 11 novembre 1918,45.7790639863242460,4.8714964631896150,35,OPEN,34,0,Orange,10056,station_velo
280,"2, Avenue du Commandant Lherminier",45.7711232449440600,4.8850235984658990,15,OPEN,3,11,Vert,10047,station_velo
281,"Face 34, Place Bellecour",45.7581569109321860,4.8304346949094690,40,OPEN,3,37,Vert,2002,station_velo
282,Avenue Jean Mermoz,45.7307718508980800,4.8873709126801900,23,OPEN,23,0,Orange,8023,station_velo
283,Place Lebret,45.7356503881221000,4.8530426544700740,14,OPEN,0,14,Bleu,8011,station_velo
284,14 quai Saint Vincent,45.7678957694769400,4.8198166574203690,22,OPEN,8,13,Vert,1006,station_velo
285,"115, Rue Tronchet",45.7707371546228860,4.8567521774675420,10,OPEN,8,1,Vert,6024,station_velo
286,Rue Professeur Beauvisage,45.7297663546006700,4.8681665813493630,20,OPEN,4,16,Vert,8006,station_velo
287,"230, Cours emile Zola",45.7680704202145800,4.8871237200591935,16,OPEN,0,16,Bleu,10012,station_velo
288,"67, Avenue roger Salengro",45.7768977023466300,4.8764587904000850,24,OPEN,3,20,Vert,10124,station_velo
289,Place de la Croix-Rousse,45.7760751390863940,4.8325539207543910,21,OPEN,20,1,Vert,4022,station_velo
290,"1, quai Perrache",45.7445140498693900,4.8267751858799750,18,OPEN,15,3,Vert,2023,station_velo
291,"Face 69, Rue Audibert & Lavirotte",45.7357952320592900,4.8568128186712000,18,OPEN,0,18,Bleu,8056,station_velo
292,Rue Jeunet,45.7504814834310240,4.7887741211031210,18,OPEN,16,2,Vert,5045,station_velo
293,Rue de la Villette,45.7600550578148400,4.8616738805899400,30,OPEN,29,0,Orange,3080,station_velo
294,Place Gerson,45.7670544551410640,4.8270475070640995,20,OPEN,4,16,Vert,5029,station_velo
295,Place Carnot,45.7500996433260700,4.8280515013551550,18,OPEN,11,7,Vert,2004,station_velo
296,"Face 22, Quai Claude Bernard",45.7494176952947240,4.8347520047111060,28,OPEN,15,12,Vert,7033,station_velo
297,Rue Domer,45.7466748285384950,4.8444434656856060,12,OPEN,1,11,Vert,7041,station_velo
298,"95, Boulevard Pinel",45.7419115491076800,4.8939591141013690,20,OPEN,17,3,Vert,3090,station_velo
299,"159, Rue Rrofesseur Beauvisage",45.7278718558835000,4.8634420589052640,17,OPEN,5,12,Vert,8008,station_velo
300,Rue du Sytral,45.7651240553553600,4.9098182197044350,28,OPEN,28,0,Orange,10014,station_velo
301,Rue Salvador Allende,45.7762290755166300,4.8626206255202240,10,OPEN,3,7,Vert,10004,station_velo
302,44 bd des Brotteaux,45.7663673112669600,4.8570018759142295,15,OPEN,11,3,Vert,6045,station_velo
303,"34, Cours de la Liberté",45.7593422663364460,4.8422275870211210,18,OPEN,13,5,Vert,3016,station_velo
304,"18, Rue Bourgelat",45.7530445329675700,4.8282455395393775,10,OPEN,3,7,Vert,2003,station_velo
305,"26, Rue Simone de Beauvoir",45.7367572482025800,4.8341384445028766,20,OPEN,0,20,Bleu,7017,station_velo
306,"3, Quai Paul Sédallian",45.7974121962714450,4.8290463533634590,16,OPEN,2,14,Vert,9008,station_velo
307,"79, Rue Philippe De Lassalle",45.7817001067679500,4.8206000461275870,16,OPEN,7,9,Vert,4042,station_velo
308,"29, Boulevard du 11 Novembre 1918",45.7793865753173900,4.8630954295037990,30,OPEN,28,1,Vert,10053,station_velo
309,"Face 99, Rue Bugeaud",45.7666921938824100,4.8520859812468150,20,OPEN,6,14,Vert,6039,station_velo
310,"2, Rue Marcel-Gabriel Rivière",45.7598862786474200,4.8357987999345910,23,OPEN,9,14,Vert,2035,station_velo
311,"Face 18, Quai du Commerce",45.7821031892804900,4.8105291426940370,30,OPEN,28,1,Vert,9014,station_velo
312,"28, Quai Victor Augagneur",45.7571997023265400,4.8404991375424880,40,OPEN,6,32,Vert,3097,station_velo
313,"3, Rue Philomène Magnin",45.7526134281457900,4.8587401961093760,24,OPEN,17,4,Vert,3035,station_velo
314,Rue Masaryk,45.7786288989070300,4.8071200280976580,13,OPEN,8,5,Vert,9022,station_velo
315,"Face 65, Boulevard Vivier Merle",45.7573393130977700,4.8585122373993705,19,OPEN,18,1,Vert,3138,station_velo
316,"5, Rue Félix Rollet",45.7483207051236600,4.8759239595508280,20,OPEN,19,1,Vert,3050,station_velo
317,"2, Rue Docteur Albéric Pont",45.7534443435600400,4.8044009888454050,16,OPEN,13,3,Vert,5047,station_velo
318,"6, Rue Antoine Lumière",45.7435678516368260,4.8701017463457850,16,OPEN,15,1,Vert,8053,station_velo
319,Rue Paradin,45.7353725112499350,4.8895389263694160,15,OPEN,14,1,Vert,8059,station_velo
320,Rue Hauy,45.7595743615015700,4.8827345465271020,24,OPEN,0,24,Bleu,10110,station_velo
321,"46, Rue Garibaldi",45.7706974838463400,4.8499357293643790,11,OPEN,0,11,Bleu,6021,station_velo
322,"Face 8, Rue de Trion",45.7559666422450850,4.8189064482919700,18,OPEN,10,8,Vert,5053,station_velo
323,"10, rue Paul Kruger",45.7386714403411200,4.8781174224582780,16,OPEN,10,6,Vert,8058,station_velo
324,"18, Rue Dugas Montbel",45.7479691410901740,4.8248617280093150,40,OPEN,12,28,Vert,2037,station_velo
325,"Face 2, Rue Professeur Jean Bernard",45.7227936222946950,4.8426881110123930,12,OPEN,12,0,Orange,7015,station_velo
326,"66, Avenue Jean Mermoz",45.7332717801444000,4.8786008569623750,12,OPEN,3,9,Vert,8024,station_velo
327,"25, Rue Jean Baldassini",45.7276967807767200,4.8373820902736710,20,OPEN,20,0,Orange,7026,station_velo
328,Place de la Libération,45.7750890702448960,4.7786729160837340,12,OPEN,12,0,Orange,24001,station_velo
329,"64, Cours Albert Thomas",45.7467163314946900,4.8674286445260060,20,OPEN,18,2,Vert,8038,station_velo
330,"Face 4, Rue Jacques Brel",45.7742206902452650,4.8642913478558220,23,OPEN,4,19,Vert,10072,station_velo
331,"28, Boulevard des Belges",45.7745048729892700,4.8484771018513760,15,OPEN,0,15,Bleu,6020,station_velo
332,"218, Avenue Jean Jaurès",45.7347254902347200,4.8354967607642045,34,OPEN,24,9,Vert,7057,station_velo
333,Rue des Frères Lumières,45.7450177556259450,4.8664326009099320,15,OPEN,9,5,Vert,8007,station_velo
334,"Face 2, Rue Tissot",45.7772955373720100,4.8033117445656650,16,OPEN,9,7,Vert,9006,station_velo
335,Angle rue Emile Decorps / Rue Max Barel,45.7571184153073900,4.8999931509132550,13,OPEN,12,1,Vert,10032,station_velo
336,"Face 145, Rue Anatole France",45.7688421415694200,4.8842920788240150,13,OPEN,4,8,Vert,10059,station_velo
337,"53, Rue Chapeau Rouge",45.7709906411448560,4.8075804142518950,12,OPEN,10,2,Vert,9040,station_velo
338,Rue de la Viabert,45.7659879833823500,4.8620922782007510,16,OPEN,13,3,Vert,6016,station_velo
339,"17, Rue des Emeraudes",45.7684122613764600,4.8590705567383440,20,OPEN,17,2,Vert,6008,station_velo
340,"105, Avenue Jean Jaurès",45.7439143269094760,4.8414244448529230,30,OPEN,7,22,Vert,7022,station_velo
341,"2, Rue de la Caille",45.7525394294912600,4.8942674717120900,16,OPEN,12,4,Vert,3102,station_velo
342,Place Jules Grandclément,45.7197119647566300,4.8885353662634170,25,OPEN,25,0,Orange,16004,station_velo
343,"243, Cours Emile Zola",45.7660755301366000,4.8986104854167065,19,OPEN,9,10,Vert,10088,station_velo
344,"24, Allée Pierre de Coubertin",45.7243483551230100,4.8268214305884180,26,OPEN,17,9,Vert,7020,station_velo
345,"192, Avenue Barthélémy Buyer",45.7638977674247500,4.7927143081079860,18,OPEN,17,1,Vert,5054,station_velo
346,"3, Rue Félissent",45.7529863435116100,4.8414152874617790,30,OPEN,14,14,Vert,7014,station_velo
347,"33, Rue Terme",45.7677346863698560,4.8321350621908300,16,OPEN,0,15,Bleu,1001,station_velo
348,Rue des Arts,45.7845253204189650,4.8774831875688880,30,OPEN,27,1,Vert,10103,station_velo
349,"59, Rue Carnot",45.7080855971723300,4.8617756041383320,18,OPEN,8,10,Vert,17003,station_velo
350,"1, Quai Joseph Gillet",45.7703894302220250,4.8142456674237000,22,OPEN,21,1,Vert,4001,station_velo
351,"Face 44, Rue de la Feyssine",45.7829835939928100,4.8906345956727780,20,OPEN,12,7,Vert,10043,station_velo
352,"1, Rue Stella",45.7607097863131200,4.8362889729420430,27,OPEN,18,7,Vert,2015,station_velo
353,"101, Avenue Paul Santy",45.7285181510160800,4.8773059343942400,16,OPEN,7,9,Vert,8021,station_velo
354,"4, Place Le Viste",45.7579850990088100,4.8345938219838450,18,OPEN,16,2,Vert,2001,station_velo
355,"60, Cours Charlemagne",45.7444223014223040,4.8221428704396105,16,OPEN,13,3,Vert,2028,station_velo
356,Place de l'Hippodrome,45.7455815521804800,4.8235326732363090,24,OPEN,7,17,Vert,2006,station_velo
357,"51, Avenue Georges Pompidou",45.7594733965948140,4.8693428966594270,20,OPEN,0,20,Bleu,3021,station_velo
358,25 Rue du Plat,45.7567868700412700,4.8283859178654340,14,OPEN,1,13,Vert,2011,station_velo
359,"26, Avenue Tony Garnier",45.7279188576411300,4.8235600814059090,25,OPEN,23,0,Orange,7049,station_velo
360,"2, Rue Claude Baudrand",45.7857755308468400,4.8337134215891260,18,OPEN,7,11,Vert,11001,station_velo
361,Place Joannès Ambre,45.7815755185206100,4.8328577220510200,20,OPEN,19,1,Vert,4011,station_velo
362,"5, Avenue Pierre Mendès France",45.7226607315060460,4.9152084999909755,30,OPEN,26,4,Vert,14005,station_velo
363,48 cours Aristide Briand,45.7854707644412200,4.8478421222935550,20,OPEN,13,7,Vert,11002,station_velo
364,Boulevard Eugène Deruelle,45.7629790120815440,4.8550066229888000,30,OPEN,30,0,Orange,3003,station_velo
365,"103, cours Emile Zola",45.7708423081013860,4.8726157733046390,17,OPEN,1,16,Vert,10061,station_velo
366,Place Commandant Arnaud,45.7797251519675600,4.8347072824510775,17,OPEN,12,5,Vert,4003,station_velo
367,"96, Rue Chevreul",45.7454305152808000,4.8477802774631010,17,OPEN,0,17,Bleu,7064,station_velo
368,"Face 12, Boulevard des Canuts",45.7760264913711400,4.8296210962258830,17,OPEN,11,6,Vert,4017,station_velo
369,"5, Quai Pasteur",45.8766089913122200,4.8386237264875970,20,OPEN,12,8,Vert,34001,station_velo
370,"202, Avenue Félix Faure",45.7550605472608750,4.8713973381549930,28,OPEN,0,22,Bleu,3068,station_velo
371,"37, Rue du Repos (entrée parc Blandan)",45.7459637288850100,4.8511961077823750,25,OPEN,0,25,Bleu,7052,station_velo
372,"4, Place Gabriel Péri",45.7548790164649200,4.8436750818920180,20,OPEN,5,12,Vert,7001,station_velo
373,Allée Achille Lignon,45.7838816142830540,4.8521404034163990,23,OPEN,21,1,Vert,6036,station_velo
374,"259t, Avenue Jean Jaurès",45.7317535548177500,4.8339617941232040,20,OPEN,20,0,Orange,7005,station_velo
375,"2, Avenue des Frères Lumière",45.7470826073157540,4.8601908518953540,16,OPEN,14,1,Vert,8052,station_velo
376,"2, Allée Andrée Mure",45.7434140947079900,4.8158543610390250,22,OPEN,19,1,Vert,2010,station_velo
377,"4, Quai Fulchiron",45.7520011769432900,4.8216617983516280,19,OPEN,4,15,Vert,5015,station_velo
378,Quai Jean Lavergne,45.8459976867574600,4.8324121337552800,17,OPEN,6,10,Vert,32001,station_velo
379,"11, Cours Franklin Roosevelt",45.7688513697593600,4.8447649388425830,20,OPEN,6,14,Vert,6004,station_velo
380,"8, Rue de l'Université",45.7509549511840560,4.8392671207183300,40,OPEN,33,7,Vert,7035,station_velo
381,"39, Rue Roger Salengro",45.7762463810845300,4.8716371652356000,15,OPEN,7,8,Vert,10120,station_velo
382,"49, Avenue du Point du Jour",45.7561939286588800,4.8027110791690140,13,OPEN,13,0,Orange,5016,station_velo
383,"75, Rue Pasteur",45.7915896614286200,4.8433313161068385,15,OPEN,13,2,Vert,11004,station_velo
384,"Face 4, Quai Général Sarrail",45.7668296196242750,4.8411393393513280,14,OPEN,3,11,Vert,6023,station_velo
385,"Face 8, Quai Claude Bernard",45.7536107053595200,4.8382209724032040,31,OPEN,31,0,Orange,7034,station_velo
386,"11, Rue Chenavard",45.7667671045630000,4.8329314879659680,18,OPEN,3,15,Vert,1020,station_velo
387,"97, Rue du 4 août 1789",45.7647991690610000,4.8842705328109050,15,OPEN,1,14,Vert,10064,station_velo
388,"Face au 140, Rue Bataille",45.7362679934923260,4.8797373771291825,18,OPEN,18,0,Orange,8050,station_velo
389,"105, Rue Pasteur",45.7473561743230900,4.8359996982041680,19,OPEN,15,4,Vert,7010,station_velo
390,"8, Boulevard Vivier Merle",45.7631656364620200,4.8574964441155850,28,OPEN,0,0,Gris,3019,station_velo
391,"294, Rue Francis de Préssensé",45.7691684753850800,4.8967695846255020,16,CLOSED,0,0,Gris,10049,station_velo
392,"9, Rue des Cuirassiers",45.7589741653167500,4.8560584600300250,,,,,,3010,station_velo
393,"Face 50, Rue des Docks",45.7865084443620300,4.8114412174203720,19,OPEN,19,0,Orange,9042,station_velo
394,"8, Avenue Tony Garnier",45.7308422388673200,4.8237404067653960,20,OPEN,12,8,Vert,7013,station_velo
395,"1, Rue Rivet",45.7402806526508460,4.8320593704251730,20,OPEN,0,18,Bleu,7018,station_velo
396,"52, Quai Paul Sédallan",45.7875097567311800,4.8144211278496750,20,OPEN,20,0,Orange,9013,station_velo
397,"110, Cours Vitton",45.7703105281291940,4.8620024989211670,20,OPEN,15,5,Vert,10111,station_velo
398,Rue de la Martinière,45.7682183165922000,4.8276217044711550,11,OPEN,2,9,Vert,1013,station_velo
399,"113, Rue de St Cyr",45.7915736750577340,4.8085346353439210,17,OPEN,12,5,Vert,26001,station_velo
400,"52, Rue Sidoine Apollinaire",45.7710182884515100,4.7964503487575510,19,OPEN,8,10,Vert,9010,station_velo
401,"10, Rue Juliette Récamier",45.7643336975612060,4.8534921297061950,16,OPEN,15,1,Vert,6028,station_velo
402,"46, Rue du Docteur Damidot",45.7618201068858800,4.8861338655236200,18,OPEN,0,18,Bleu,10034,station_velo
403,"1, Place Victor Basch",45.7537858652435600,4.8480424261036825,26,OPEN,12,11,Vert,3005,station_velo
404,"34, Rue Billon",45.7719119252490800,4.8790707067819020,16,OPEN,0,15,Bleu,10121,station_velo
405,11 Rue Paul Cazeneuve,45.7373337133711400,4.8654943125527870,20,OPEN,17,3,Vert,8033,station_velo
406,49 bis Esplanade Lina Cretet,45.7673654785190900,4.8056276995192775,40,OPEN,29,11,Vert,9033,station_velo
407,"87, Avenue Félix Faure",45.7535182868894700,4.8577376181704960,35,OPEN,32,3,Vert,3040,station_velo
408,Place Antoinette,45.7536532555808650,4.8892423184432870,21,OPEN,14,7,Vert,3013,station_velo
409,"Face 30, Montée des Carmélites",45.7700015740910800,4.8292695053207500,16,OPEN,2,14,Vert,1034,station_velo
410,"149, Rue Boileau",45.7640576127189100,4.8499305460757520,15,OPEN,11,3,Vert,6040,station_velo
411,"112, Rue de la Poudrette",45.7578829540715000,4.9211417117922070,18,OPEN,18,0,Orange,10015,station_velo
412,"19, Rue Saint Jean",45.7766422715883900,4.9023610707870110,12,OPEN,2,10,Vert,10123,station_velo
413,Place de la Gare,45.8749934925375340,4.8330021360822780,18,OPEN,18,0,Orange,33001,station_velo
414,"13, Rue Pierre Voyant",45.7649456438753100,4.9010152745308350,20,OPEN,20,0,Orange,10013,station_velo
415,"101, Cours Charlemagne",45.7405383152039140,4.8191795184368050,32,OPEN,28,2,Vert,2005,station_velo
416,"Face 30, Rue Cdt Charcot",45.7550310886452600,4.8077850541519440,32,OPEN,32,0,Orange,5030,station_velo
417,"Face 2, Rue Pierre Delore",45.7386358835747000,4.8524001839789180,20,OPEN,0,20,Bleu,8039,station_velo
418,Entrée Est du Tube Mode Doux,45.7729266206145400,4.8372695440684375,20,OPEN,0,20,Bleu,1037,station_velo
419,Rue Nungesser et Coli,45.7413487229911060,4.8797231637591720,16,OPEN,13,3,Vert,8030,station_velo
420,"104, Rue Commandant Charcot",45.7496172707888960,4.7955310931658570,15,OPEN,14,1,Vert,5036,station_velo
421,"4, Place Sathonay",45.7692658462512900,4.8300797887695630,15,OPEN,7,8,Vert,1003,station_velo
422,"7, Place Boissier",45.7862776558451700,4.9268855599077890,20,OPEN,12,8,Vert,12005,station_velo
423,"40, Cours Tolstoï",45.7636407030235000,4.8731410878807795,16,OPEN,0,16,Bleu,10025,station_velo
424,"28, Rue Louis Fort",45.7747495364239260,4.8879713172874080,16,OPEN,0,16,Bleu,10091,station_velo
425,"Face 158, Avenue Roger Salengro",45.7806441632908400,4.8834970167362710,22,OPEN,3,19,Vert,10031,station_velo
426,"3, Rue Antoine Lumière",45.7408946957303000,4.8683054018251575,20,OPEN,14,6,Vert,8054,station_velo
427,Rue Challemel Larcour,45.7294551265970500,4.8441778720101850,20,OPEN,19,0,Orange,7025,station_velo
428,Rue de Créqui,45.7566983441751900,4.8484034857557150,30,OPEN,10,20,Vert,3018,station_velo
429,"4, Place Gailleton",45.7534495026210240,4.8333645518023690,16,OPEN,4,11,Vert,2012,station_velo
430,"54, Rue Jean Jaurès",45.7576238257730240,4.8834373293055560,25,OPEN,16,9,Vert,10023,station_velo
